<MerchantPOIList><MerchantPOIArray><MerchantName>2A BAR</MerchantName><MerchantStreetAddress>25 AVENUE A</MerchantStreetAddress><City>NEW YORK</City><State>NY</State><ZipCode>10009</ZipCode><Longitude>-73.986048</Longitude><Latitude>40.722994</Latitude><HotCold>N</HotCold></MerchantPOIArray><MerchantPOIArray><MerchantName>B SIDE</MerchantName><MerchantStreetAddress>204 AVENUE B</MerchantStreetAddress><City>NEW YORK</City><State>NY</State><ZipCode>10009</ZipCode><Longitude>-73.978856999999991</Longitude><Latitude>40.728456</Latitude><HotCold>N</HotCold></MerchantPOIArray><MerchantPOIArray><MerchantName>BABEL LOUNGE</MerchantName><MerchantStreetAddress>131 AVENUE C</MerchantStreetAddress><City>NEW YORK</City><State>NY</State><ZipCode>10009</ZipCode><Longitude>-73.978509</Longitude><Latitude>40.724973999999996</Latitude><HotCold>N</HotCold></MerchantPOIArray><MerchantPOIArray><MerchantName>BEDLAM</MerchantName><MerchantStreetAddress>40 AVE C</MerchantStreetAddress><City>NEW YORK</City><State>NY</State><ZipCode>10009</ZipCode><Longitude>-73.980356</Longitude><Latitude>40.721883999999996</Latitude><HotCold>N</HotCold></MerchantPOIArray><MerchantPOIArray><MerchantName>BOXCAR LOUNGE</MerchantName><MerchantStreetAddress>168 AVE B</MerchantStreetAddress><City>NEW YORK</City><State>NY</State><ZipCode>10009</ZipCode><Longitude>-73.979762</Longitude><Latitude>40.727228</Latitude><HotCold>N</HotCold></MerchantPOIArray><MerchantPOIArray><MerchantName>CHERRY TAVERN INC</MerchantName><MerchantStreetAddress>441 E 6 TH STREET</MerchantStreetAddress><City>NEW YORK</City><State>NY</State><ZipCode>10009</ZipCode><Longitude>-73.98451399999999</Longitude><Latitude>40.725770999999995</Latitude><HotCold>N</HotCold></MerchantPOIArray><MerchantPOIArray><MerchantName>DOC HOLLIDAYS</MerchantName><MerchantStreetAddress>141 AVE A</MerchantStreetAddress><City>NEW YORK</City><State>NY</State><ZipCode>10009</ZipCode><Longitude>-73.982839</Longitude><Latitude>40.727219999999996</Latitude><HotCold>N</HotCold></MerchantPOIArray><MerchantPOIArray><MerchantName>DOUBLE DOWN SALOON</MerchantName><MerchantStreetAddress>14 AVENUE A</MerchantStreetAddress><City>NEW YORK</City><State>NY</State><ZipCode>10009</ZipCode><Longitude>-73.985925999999992</Longitude><Latitude>40.72255</Latitude><HotCold>N</HotCold></MerchantPOIArray><MerchantPOIArray><MerchantName>DREAM BABY BAR</MerchantName><MerchantStreetAddress>162 AVENUE B</MerchantStreetAddress><City>NEW YORK</City><State>NY</State><ZipCode>10009</ZipCode><Longitude>-73.979822</Longitude><Latitude>40.727106</Latitude><HotCold>N</HotCold></MerchantPOIArray><MerchantPOIArray><MerchantName>DROP OFF SERVICE</MerchantName><MerchantStreetAddress>211 AVENUE A</MerchantStreetAddress><City>NEW YORK</City><State>NY</State><ZipCode>10009</ZipCode><Longitude>-73.98092299999999</Longitude><Latitude>40.729926999999996</Latitude><HotCold>N</HotCold></MerchantPOIArray><MerchantPOIArray><MerchantName>ELSA</MerchantName><MerchantStreetAddress>217 E 3 RD</MerchantStreetAddress><City>NEW YORK</City><State>NY</State><ZipCode>10009</ZipCode><Longitude>-73.982258</Longitude><Latitude>40.722522999999995</Latitude><HotCold>N</HotCold></MerchantPOIArray><MerchantPOIArray><MerchantName>THE HI-FI BAR</MerchantName><MerchantStreetAddress>169 AVENUE A</MerchantStreetAddress><City>NEW YORK</City><State>NY</State><ZipCode>10009</ZipCode><Longitude>-73.98207</Longitude><Latitude>40.728308999999996</Latitude><HotCold>N</HotCold></MerchantPOIArray><MerchantPOIArray><MerchantName>THE INTERNATIONAL BAR</MerchantName><MerchantStreetAddress>120 12 1 ST AVENUE</MerchantStreetAddress><City>NEW YORK</City><State>NY</State><ZipCode>10009</ZipCode><Longitude>-73.985537</Longitude><Latitude>40.727092999999996</Latitude><HotCold>N</HotCold></MerchantPOIArray><MerchantPOIArray><MerchantName>JOSIE'S</MerchantName><MerchantStreetAddress>520 EAST 6 TH STREET</MerchantStreetAddress><City>NEW YORK</City><State>NY</State><ZipCode>10009</ZipCode><Longitude>-73.983097</Longitude><Latitude>40.724761</Latitude><HotCold>N</HotCold></MerchantPOIArray><MerchantPOIArray><MerchantName>KELLYS NYC</MerchantName><MerchantStreetAddress>12 AVENUE A</MerchantStreetAddress><City>NEW YORK</City><State>NY</State><ZipCode>10009</ZipCode><Longitude>-73.986025</Longitude><Latitude>40.722541</Latitude><HotCold>N</HotCold></MerchantPOIArray><MerchantPOIArray><MerchantName>KEYBAR</MerchantName><MerchantStreetAddress>432 E 13 TH ST</MerchantStreetAddress><City>NEW YORK</City><State>NY</State><ZipCode>10009</ZipCode><Longitude>-73.981878</Longitude><Latitude>40.730106</Latitude><HotCold>N</HotCold></MerchantPOIArray><MerchantPOIArray><MerchantName>LIBRARY BAR</MerchantName><MerchantStreetAddress>7 AVE A</MerchantStreetAddress><City>NEW YORK</City><State>NY</State><ZipCode>10009</ZipCode><Longitude>-73.986248</Longitude><Latitude>40.722504</Latitude><HotCold>N</HotCold></MerchantPOIArray><MerchantPOIArray><MerchantName>LOVERS OF TODAY BAR</MerchantName><MerchantStreetAddress>132 12 EAST 7 TH STREET</MerchantStreetAddress><City>NEW YORK</City><State>NY</State><ZipCode>10009</ZipCode><Longitude>-73.983392999999992</Longitude><Latitude>40.725938</Latitude><HotCold>N</HotCold></MerchantPOIArray><MerchantPOIArray><MerchantName>MANITOBA'S</MerchantName><MerchantStreetAddress>99 AVENUE B</MerchantStreetAddress><City>NEW YORK</City><State>NY</State><ZipCode>10009</ZipCode><Longitude>-73.981369</Longitude><Latitude>40.724761</Latitude><HotCold>N</HotCold></MerchantPOIArray><MerchantPOIArray><MerchantName>MONA'S</MerchantName><MerchantStreetAddress>224 AVENUE B</MerchantStreetAddress><City>NEW YORK</City><State>NY</State><ZipCode>10009</ZipCode><Longitude>-73.978448</Longitude><Latitude>40.729087</Latitude><HotCold>N</HotCold></MerchantPOIArray><MerchantPOIArray><MerchantName>MUG BAR LOUNGE</MerchantName><MerchantStreetAddress>446 448 13 TH STREET</MerchantStreetAddress><City>NEW YORK</City><State>NY</State><ZipCode>10009</ZipCode><Longitude>-73.981425</Longitude><Latitude>40.729896</Latitude><HotCold>N</HotCold></MerchantPOIArray><MerchantPOIArray><MerchantName>NIAGARA BAR</MerchantName><MerchantStreetAddress>112 AVENUE A</MerchantStreetAddress><City>NEW YORK</City><State>NY</State><ZipCode>10009</ZipCode><Longitude>-73.983502</Longitude><Latitude>40.72597</Latitude><HotCold>N</HotCold></MerchantPOIArray><MerchantPOIArray><MerchantName>NO MALICE PALACE</MerchantName><MerchantStreetAddress>197 EAST 3 RD ST</MerchantStreetAddress><City>NEW YORK</City><State>NY</State><ZipCode>10009</ZipCode><Longitude>-73.98326</Longitude><Latitude>40.722904</Latitude><HotCold>N</HotCold></MerchantPOIArray><MerchantPOIArray><MerchantName>NO MALICE PALACE</MerchantName><MerchantStreetAddress>197 ARTICHOKE COURT</MerchantStreetAddress><City>NEW YORK</City><State>NY</State><ZipCode>10009</ZipCode><Longitude>-73.97760000000001</Longitude><Latitude>40.7263</Latitude><HotCold>N</HotCold></MerchantPOIArray><MerchantPOIArray><MerchantName>PERBACCO - GAA</MerchantName><MerchantStreetAddress>234 E 4 TH STREET</MerchantStreetAddress><City>NEW YORK</City><State>NY</State><ZipCode>10009</ZipCode><Longitude>-73.983063</Longitude><Latitude>40.723389</Latitude><HotCold>N</HotCold></MerchantPOIArray><MerchantPOIArray><MerchantName>PHOENIX</MerchantName><MerchantStreetAddress>447 E 13 TH ST</MerchantStreetAddress><City>NEW YORK</City><State>NY</State><ZipCode>10009</ZipCode><Longitude>-73.981377999999992</Longitude><Latitude>40.729997999999995</Latitude><HotCold>N</HotCold></MerchantPOIArray><MerchantPOIArray><MerchantName>SING SING KARAOKE AVEN</MerchantName><MerchantStreetAddress>81 ST AVENUE A</MerchantStreetAddress><City>NEW YORK</City><State>NY</State><ZipCode>10009</ZipCode><Longitude>-73.9845</Longitude><Latitude>40.725051</Latitude><HotCold>N</HotCold></MerchantPOIArray><MerchantPOIArray><MerchantName>SOPHIE'S</MerchantName><MerchantStreetAddress>507 EAST 5 TH STREET</MerchantStreetAddress><City>NEW YORK</City><State>NY</State><ZipCode>10009</ZipCode><Longitude>-73.98393</Longitude><Latitude>40.724748</Latitude><HotCold>N</HotCold></MerchantPOIArray><MerchantPOIArray><MerchantName>TAVERNA KYCLADES</MerchantName><MerchantStreetAddress>228 1 ST AVE</MerchantStreetAddress><City>NEW YORK</City><State>NY</State><ZipCode>10009</ZipCode><Longitude>-73.982725</Longitude><Latitude>40.731134999999995</Latitude><HotCold>N</HotCold></MerchantPOIArray><MerchantPOIArray><MerchantName>ATTIC</MerchantName><MerchantStreetAddress>790 EIGHTH AVE</MerchantStreetAddress><City>NEW YORK</City><State>NY</State><ZipCode>10009</ZipCode><Longitude>-73.98702</Longitude><Latitude>40.76104</Latitude><HotCold>N</HotCold></MerchantPOIArray><MerchantPOIArray><MerchantName>BLIND BARBER NY</MerchantName><MerchantStreetAddress>339 E 10 TH ST</MerchantStreetAddress><City>NEW YORK</City><State>NY</State><ZipCode>10009</ZipCode><Longitude>-73.980252</Longitude><Latitude>40.727103</Latitude><HotCold>N</HotCold></MerchantPOIArray><MerchantPOIArray><MerchantName>THE CABIN DOWN BELOW</MerchantName><MerchantStreetAddress>110 AVENUE A</MerchantStreetAddress><City>NEW YORK</City><State>NY</State><ZipCode>10009</ZipCode><Longitude>-73.983402</Longitude><Latitude>40.72611</Latitude><HotCold>N</HotCold></MerchantPOIArray><MerchantPOIArray><MerchantName>THE DL</MerchantName><MerchantStreetAddress>95 DELANCEY ST</MerchantStreetAddress><City>NEW YORK</City><State>NY</State><ZipCode>10009</ZipCode><Longitude>-73.989283</Longitude><Latitude>40.718785</Latitude><HotCold>N</HotCold></MerchantPOIArray><MerchantPOIArray><MerchantName>HORSE BOX BAR</MerchantName><MerchantStreetAddress>218 AVE A</MerchantStreetAddress><City>NEW YORK</City><State>NY</State><ZipCode>10009</ZipCode><Longitude>-73.980481</Longitude><Latitude>40.730067</Latitude><HotCold>N</HotCold></MerchantPOIArray><MerchantPOIArray><MerchantName>THE SUMMIT BAR</MerchantName><MerchantStreetAddress>133 AVE C</MerchantStreetAddress><City>NEW YORK</City><State>NY</State><ZipCode>10009</ZipCode><Longitude>-73.978473999999991</Longitude><Latitude>40.725021</Latitude><HotCold>N</HotCold></MerchantPOIArray><MerchantPOIArray><MerchantName>10 DEGREES BAR</MerchantName><MerchantStreetAddress>121 SAINT MARKS PLACE</MerchantStreetAddress><City>NEW YORK</City><State>NY</State><ZipCode>10009</ZipCode><Longitude>-73.983447</Longitude><Latitude>40.726963</Latitude><HotCold>N</HotCold></MerchantPOIArray><MerchantPOIArray><MerchantName>14 ST PIZZA BAGEL CAFE</MerchantName><MerchantStreetAddress>400 E 14 TH ST</MerchantStreetAddress><City>NEW YORK</City><State>NY</State><ZipCode>10009</ZipCode><Longitude>-73.982507</Longitude><Latitude>40.731173999999996</Latitude><HotCold>N</HotCold></MerchantPOIArray><MerchantPOIArray><MerchantName>A &amp; C KITCHEN INC</MerchantName><MerchantStreetAddress>134 136 AVE C A</MerchantStreetAddress><City>NEW YORK</City><State>NY</State><ZipCode>10009</ZipCode><Longitude>-73.942917999999992</Longitude><Latitude>40.815722</Latitude><HotCold>N</HotCold></MerchantPOIArray><MerchantPOIArray><MerchantName>ADAMES DELI GROCERY Q3</MerchantName><MerchantStreetAddress>113 AVE D</MerchantStreetAddress><City>NEW YORK</City><State>NY</State><ZipCode>10009</ZipCode><Longitude>-73.976064999999991</Longitude><Latitude>40.723802</Latitude><HotCold>N</HotCold></MerchantPOIArray><MerchantPOIArray><MerchantName>BASKIN #342968 ONLINEC</MerchantName><MerchantStreetAddress>100 1 AVE</MerchantStreetAddress><City>NEW YORK</City><State>NY</State><ZipCode>10009</ZipCode><Longitude>-73.986049</Longitude><Latitude>40.726281</Latitude><HotCold>N</HotCold></MerchantPOIArray><MerchantPOIArray><MerchantName>C &amp; B</MerchantName><MerchantStreetAddress>178 EAST 7 TH STREET</MerchantStreetAddress><City>NEW YORK</City><State>NY</State><ZipCode>10009</ZipCode><Longitude>-73.984265999999991</Longitude><Latitude>40.726141999999996</Latitude><HotCold>N</HotCold></MerchantPOIArray><MerchantPOIArray><MerchantName>BUENO EAST MART</MerchantName><MerchantStreetAddress>36 AVENUE A</MerchantStreetAddress><City>NEW YORK</City><State>NY</State><ZipCode>10009</ZipCode><Longitude>-73.985193</Longitude><Latitude>40.723448</Latitude><HotCold>N</HotCold></MerchantPOIArray><MerchantPOIArray><MerchantName>CANCUN MEXICAN RESTAUR</MerchantName><MerchantStreetAddress>937 8 TH AVE</MerchantStreetAddress><City>NEW YORK</City><State>NY</State><ZipCode>10009</ZipCode><Longitude>-73.983857</Longitude><Latitude>40.765784</Latitude><HotCold>N</HotCold></MerchantPOIArray><MerchantPOIArray><MerchantName>CROWN FRIED CHICKEN</MerchantName><MerchantStreetAddress>117 AVENUE D</MerchantStreetAddress><City>NEW YORK</City><State>NY</State><ZipCode>10009</ZipCode><Longitude>-73.975956</Longitude><Latitude>40.724067999999995</Latitude><HotCold>N</HotCold></MerchantPOIArray><MerchantPOIArray><MerchantName>DRAW ONE COFFEE SHOP</MerchantName><MerchantStreetAddress>442 A E 14 TH STREET</MerchantStreetAddress><City>NEW YORK</City><State>NY</State><ZipCode>10009</ZipCode><Longitude>-73.984676</Longitude><Latitude>40.725950999999995</Latitude><HotCold>Y</HotCold></MerchantPOIArray><MerchantPOIArray><MerchantName>DUNKIN #310026</MerchantName><MerchantStreetAddress>266 1 AVE</MerchantStreetAddress><City>NEW YORK</City><State>NY</State><ZipCode>10009</ZipCode><Longitude>-73.981512999999993</Longitude><Latitude>40.732192</Latitude><HotCold>N</HotCold></MerchantPOIArray><MerchantPOIArray><MerchantName>DUNKIN DONUTS #342968 Q35</MerchantName><MerchantStreetAddress>100 1 AVE</MerchantStreetAddress><City>NEW YORK</City><State>NY</State><ZipCode>10009</ZipCode><Longitude>-73.98592</Longitude><Latitude>40.726433</Latitude><HotCold>N</HotCold></MerchantPOIArray><MerchantPOIArray><MerchantName>DUNKIN #347101</MerchantName><MerchantStreetAddress>520 E 14 ST</MerchantStreetAddress><City>NEW YORK</City><State>NY</State><ZipCode>10009</ZipCode><Longitude>-73.979271</Longitude><Latitude>40.729907</Latitude><HotCold>N</HotCold></MerchantPOIArray><MerchantPOIArray><MerchantName>DUNKIN DONUTS #352393 Q</MerchantName><MerchantStreetAddress>542 E 14 TH ST</MerchantStreetAddress><City>NEW YORK</City><State>NY</State><ZipCode>10009</ZipCode><Longitude>-73.979305</Longitude><Latitude>40.729800999999995</Latitude><HotCold>N</HotCold></MerchantPOIArray><MerchantPOIArray><MerchantName>EDI AND THE WOLF</MerchantName><MerchantStreetAddress>102 AVE C</MerchantStreetAddress><City>NEW YORK</City><State>NY</State><ZipCode>10009</ZipCode><Longitude>-73.978777999999991</Longitude><Latitude>40.723836</Latitude><HotCold>N</HotCold></MerchantPOIArray><MerchantPOIArray><MerchantName>F &amp; F 99 CENTS PIZZA</MerchantName><MerchantStreetAddress>153 AVENUE C</MerchantStreetAddress><City>NEW YORK</City><State>NY</State><ZipCode>10009</ZipCode><Longitude>-73.977881</Longitude><Latitude>40.725652</Latitude><HotCold>N</HotCold></MerchantPOIArray><MerchantPOIArray><MerchantName>JUICE PRESS 2</MerchantName><MerchantStreetAddress>279 E 10 TH ST</MerchantStreetAddress><City>NEW YORK</City><State>NY</State><ZipCode>10009</ZipCode><Longitude>-73.982717</Longitude><Latitude>40.728137</Latitude><HotCold>N</HotCold></MerchantPOIArray><MerchantPOIArray><MerchantName>JUST SALAD 706 6TH AVE</MerchantName><MerchantStreetAddress>706 6 TH AVE</MerchantStreetAddress><City>NEW YORK</City><State>NY</State><ZipCode>10009</ZipCode><Longitude>-73.99295</Longitude><Latitude>40.742560999999995</Latitude><HotCold>N</HotCold></MerchantPOIArray><MerchantPOIArray><MerchantName>KAMAKURA COFFEE SHOP</MerchantName><MerchantStreetAddress>543 E 5 TH STREET</MerchantStreetAddress><City>NEW YORK</City><State>NY</State><ZipCode>10009</ZipCode><Longitude>-73.98236399999999</Longitude><Latitude>40.724235</Latitude><HotCold>N</HotCold></MerchantPOIArray><MerchantPOIArray><MerchantName>LITTLE GIOS PIZZA</MerchantName><MerchantStreetAddress>26 1 ST AVENUE</MerchantStreetAddress><City>NEW YORK</City><State>NY</State><ZipCode>10009</ZipCode><Longitude>-73.988041</Longitude><Latitude>40.723696</Latitude><HotCold>N</HotCold></MerchantPOIArray><MerchantPOIArray><MerchantName>MAJESTY PIZZA &amp; GRILL</MerchantName><MerchantStreetAddress>31 AVE C</MerchantStreetAddress><City>NEW YORK</City><State>NY</State><ZipCode>10009</ZipCode><Longitude>-73.980938</Longitude><Latitude>40.721677</Latitude><HotCold>N</HotCold></MerchantPOIArray><MerchantPOIArray><MerchantName>MAMANI PIZZA</MerchantName><MerchantStreetAddress>151 AVE A</MerchantStreetAddress><City>NEW YORK</City><State>NY</State><ZipCode>10009</ZipCode><Longitude>-73.982567</Longitude><Latitude>40.727608</Latitude><HotCold>N</HotCold></MerchantPOIArray><MerchantPOIArray><MerchantName>MCDONALD'S F13064</MerchantName><MerchantStreetAddress>404 E 14 TH ST</MerchantStreetAddress><City>NEW YORK</City><State>NY</State><ZipCode>10009</ZipCode><Longitude>-73.982348</Longitude><Latitude>40.731063999999996</Latitude><HotCold>N</HotCold></MerchantPOIArray><MerchantPOIArray><MerchantName>MCDONALD'S F4020</MerchantName><MerchantStreetAddress>102 106 1 ST AVE</MerchantStreetAddress><City>NEW YORK</City><State>NY</State><ZipCode>10009</ZipCode><Longitude>-73.985948</Longitude><Latitude>40.726527999999995</Latitude><HotCold>N</HotCold></MerchantPOIArray><MerchantPOIArray><MerchantName>MCDONALD'S # 4020</MerchantName><MerchantStreetAddress>102 106 FIRST AVE</MerchantStreetAddress><City>NEW YORK</City><State>NY</State><ZipCode>10009</ZipCode><Longitude>-73.985948</Longitude><Latitude>40.726527999999995</Latitude><HotCold>N</HotCold></MerchantPOIArray><MerchantPOIArray><MerchantName>MINI THAI CAFE</MerchantName><MerchantStreetAddress>103 AVENUE A</MerchantStreetAddress><City>NEW YORK</City><State>NY</State><ZipCode>10009</ZipCode><Longitude>-73.983766</Longitude><Latitude>40.725845</Latitude><HotCold>N</HotCold></MerchantPOIArray><MerchantPOIArray><MerchantName>OAXACA TAQUERIA SEVENT</MerchantName><MerchantStreetAddress>125 EAST 7 TH ST</MerchantStreetAddress><City>NEW YORK</City><State>NY</State><ZipCode>10009</ZipCode><Longitude>-73.984229</Longitude><Latitude>40.726296</Latitude><HotCold>N</HotCold></MerchantPOIArray><MerchantPOIArray><MerchantName>OST CAFE</MerchantName><MerchantStreetAddress>441 EAST 12 TH STREET</MerchantStreetAddress><City>NEW YORK</City><State>NY</State><ZipCode>10009</ZipCode><Longitude>-73.98141</Longitude><Latitude>40.729199</Latitude><HotCold>N</HotCold></MerchantPOIArray><MerchantPOIArray><MerchantName>OVAL CAFE</MerchantName><MerchantStreetAddress>5 STUYVESANT OVAL</MerchantStreetAddress><City>NEW YORK</City><State>NY</State><ZipCode>10009</ZipCode><Longitude>-73.978811999999991</Longitude><Latitude>40.731950999999995</Latitude><HotCold>N</HotCold></MerchantPOIArray><MerchantPOIArray><MerchantName>PAPA JOHN'S #03872</MerchantName><MerchantStreetAddress>210 1 ST AVE</MerchantStreetAddress><City>NEW YORK</City><State>NY</State><ZipCode>10009</ZipCode><Longitude>-73.983055999999991</Longitude><Latitude>40.730424</Latitude><HotCold>N</HotCold></MerchantPOIArray><MerchantPOIArray><MerchantName>POPPYS GOURMET CORNER</MerchantName><MerchantStreetAddress>191 AVENUE A</MerchantStreetAddress><City>NEW YORK</City><State>NY</State><ZipCode>10009</ZipCode><Longitude>-73.981644</Longitude><Latitude>40.729063</Latitude><HotCold>N</HotCold></MerchantPOIArray><MerchantPOIArray><MerchantName>RAYS CANDY STORE</MerchantName><MerchantStreetAddress>113 AVE A</MerchantStreetAddress><City>NEW YORK</City><State>NY</State><ZipCode>10009</ZipCode><Longitude>-73.983457</Longitude><Latitude>40.726245</Latitude><HotCold>N</HotCold></MerchantPOIArray><MerchantPOIArray><MerchantName>RED MANGO</MerchantName><MerchantStreetAddress>264 FIRST AVE</MerchantStreetAddress><City>NEW YORK</City><State>NY</State><ZipCode>10009</ZipCode><Longitude>-73.981737</Longitude><Latitude>40.732245</Latitude><HotCold>N</HotCold></MerchantPOIArray><MerchantPOIArray><MerchantName>SHERVINS CAFE</MerchantName><MerchantStreetAddress>131 EAST 7 TH ST</MerchantStreetAddress><City>NEW YORK</City><State>NY</State><ZipCode>10009</ZipCode><Longitude>-73.983932</Longitude><Latitude>40.726262999999996</Latitude><HotCold>N</HotCold></MerchantPOIArray><MerchantPOIArray><MerchantName>STARBUCKS #07858 NEW Y</MerchantName><MerchantStreetAddress>286 FIRST AVENUE</MerchantStreetAddress><City>NEW YORK</City><State>NY</State><ZipCode>10009</ZipCode><Longitude>-73.98084999999999</Longitude><Latitude>40.733002</Latitude><HotCold>N</HotCold></MerchantPOIArray><MerchantPOIArray><MerchantName>SUBWAY #50977</MerchantName><MerchantStreetAddress>223 AVE B</MerchantStreetAddress><City>NEW YORK</City><State>NY</State><ZipCode>10009</ZipCode><Longitude>-73.978191999999993</Longitude><Latitude>40.728986</Latitude><HotCold>N</HotCold></MerchantPOIArray><MerchantPOIArray><MerchantName>SUBWAY #53701</MerchantName><MerchantStreetAddress>108 FIRST AVE</MerchantStreetAddress><City>NEW YORK</City><State>NY</State><ZipCode>10009</ZipCode><Longitude>-73.985777</Longitude><Latitude>40.726619</Latitude><HotCold>N</HotCold></MerchantPOIArray></MerchantPOIList>